City_ID,City,Lat,Lng,Max Temp,Humidity,Cloudiness,Wind Speed,Country,Date
0,quatre cocos,-20.2078,57.7625,25.06,87,100,4.58,MU,1731267496
1,longyearbyen,78.2186,15.6401,-3.09,86,75,0.0,SJ,1731267280
2,udachny,66.4167,112.4,-18.01,98,85,1.93,RU,1731267428
3,adamstown,-25.066,-130.1015,22.06,81,100,6.18,PN,1731267411
4,dingwall,57.5953,-4.4272,6.99,91,2,3.39,GB,1731267501
5,remire-montjoly,4.9167,-52.2667,26.02,94,75,1.54,GF,1731267415
6,ushuaia,-54.8,-68.3,8.81,71,75,7.72,AR,1731267460
7,rousinov,49.2013,16.8822,2.72,92,100,1.54,CZ,1731267505
8,iqaluit,63.7506,-68.5145,-4.15,68,75,4.63,CA,1731267310
9,howard springs,-12.497,131.047,25.95,95,100,1.59,AU,1731267508
10,boali,4.8005,18.1275,22.34,92,22,0.76,CF,1731267509
11,yellowknife,62.456,-114.3525,-9.71,85,75,3.6,CA,1731267394
12,gisborne,-38.6533,178.0042,19.73,68,90,4.0,NZ,1731267511
13,isafjordur,66.0755,-23.124,2.61,93,100,16.93,IS,1731267512
14,namtsy,62.7161,129.6658,-18.43,99,99,0.37,RU,1731267513
15,thunder bay,48.4001,-89.3168,6.99,100,100,1.03,CA,1731267515
16,yerofey pavlovich,53.9667,121.9667,-18.34,96,31,1.32,RU,1731267516
17,mao,39.8885,4.2658,17.31,77,40,7.2,ES,1731267424
18,punta arenas,-53.15,-70.9167,12.06,35,40,13.89,CL,1731267485
19,stanthorpe,-28.6667,151.95,17.46,99,100,1.19,AU,1731267519
20,invercargill,-46.4,168.35,10.57,68,90,6.26,NZ,1731267521
21,grytviken,-54.2811,-36.5092,0.12,77,42,1.53,GS,1731267523
22,qaqortoq,60.7167,-46.0333,-2.31,86,100,3.99,GL,1731267438
23,conde,-7.2597,-34.9075,28.7,54,40,5.14,BR,1731267525
24,ta`u,-14.2336,-169.5144,27.19,82,99,7.97,AS,1731267526
25,taltal,-25.4,-70.4833,19.52,72,68,3.43,CL,1731267020
26,bilibino,68.0546,166.4372,-17.84,98,100,0.45,RU,1731267528
27,mahibadhoo,3.7833,72.9667,27.09,79,23,3.33,MV,1731267530
28,port-aux-francais,-49.35,70.2167,4.42,84,58,9.8,TF,1731267403
29,vadso,70.0744,29.7487,4.09,87,100,3.6,NO,1731267375
30,waitangi,-43.9535,-176.5597,14.34,97,100,4.02,NZ,1731267533
31,hawaiian paradise park,19.5933,-154.9731,25.5,84,100,2.06,US,1731267534
32,newport,51.5877,-2.9984,13.58,94,17,2.42,GB,1731267535
33,shubarshi,48.5872,57.1869,1.34,89,100,4.52,KZ,1731267536
34,tazovsky,67.4667,78.7,-10.68,92,100,7.62,RU,1731267538
35,al jawf,29.5,38.75,22.11,36,0,3.65,SA,1731267539
36,klyuchi,52.2667,79.1667,0.14,92,100,7.92,RU,1731267540
37,luderitz,-26.6481,15.1594,16.38,72,0,8.76,,1731267541
38,katsuren-haebaru,26.3369,127.8719,24.49,100,20,2.06,JP,1731267542
39,blackmans bay,-43.0167,147.3167,6.96,90,3,0.45,AU,1731267543
40,kuala tungkal,-0.8167,103.4667,24.52,93,98,2.18,ID,1731267544
41,tshabong,-26.05,22.45,25.7,16,92,6.37,BW,1731267545
42,atafu village,-8.5421,-172.5159,28.44,69,73,4.99,TK,1731267547
43,hadibu,12.65,54.0333,25.99,78,67,4.46,YE,1731267548
44,papatowai,-46.5619,169.4708,8.52,69,94,7.39,NZ,1731267549
45,hermanus,-34.4187,19.2345,13.78,79,100,4.98,ZA,1731267550
46,tofol,5.3248,163.0078,28.85,77,99,8.96,FM,1731267551
47,santa terezinha,-29.9002,-50.0904,20.91,71,0,9.17,BR,1731267552
48,chatra,24.2167,84.8667,19.02,62,0,1.55,IN,1731267554
49,selfoss,63.9331,-20.9971,6.14,75,100,10.8,IS,1731267555
50,naryn,41.4287,75.9911,-4.82,44,74,3.77,KG,1731267556
51,ulsteinvik,62.3432,5.8487,6.07,72,99,2.99,NO,1731267557
52,gembu,6.7,11.2667,17.02,71,41,1.56,NG,1731267559
53,palapag,12.5458,125.1147,24.25,96,100,1.6,PH,1731267560
54,st. john's,47.5649,-52.7093,3.32,58,20,13.89,CA,1731267562
55,ola,59.5833,151.2833,-10.68,65,100,7.26,RU,1731267563
56,avarua,-21.2078,-159.775,24.03,64,40,5.14,CK,1731267564
57,tralee,52.2704,-9.7026,7.97,92,81,0.97,IE,1731267565
58,lompoc,34.6391,-120.4579,24.27,50,0,3.09,US,1731267459
59,cruzeiro do sul,-29.5128,-51.9853,30.85,63,0,2.77,BR,1731267567
60,dryden,49.7833,-92.7503,6.16,100,100,3.09,CA,1731267358
61,chamber,25.2931,68.812,26.54,64,0,4.9,PK,1731267569
62,ust'-ilimsk,58.0006,102.6619,-9.95,91,54,2.01,RU,1731267571
63,nanao,37.05,136.9667,14.04,74,100,0.69,JP,1731267304
64,hammerfest,70.6634,23.6821,8.25,76,75,5.66,NO,1731267573
65,le port,-20.9373,55.2919,24.98,91,23,2.8,RE,1731267298
66,nelson bay,-32.7167,152.15,20.05,86,100,2.68,AU,1731267576
67,gorontalo,0.5412,123.0595,24.12,96,67,1.01,ID,1731267577
68,port lincoln,-34.7333,135.8667,15.38,89,66,5.41,AU,1731267579
69,newman,37.3138,-121.0208,18.35,41,42,0.89,US,1731267580
70,holualoa,19.6228,-155.9522,25.46,74,0,3.6,US,1731267582
71,port mathurin,-19.6833,63.4167,24.48,81,94,8.06,MU,1731267474
72,puerto natales,-51.7236,-72.4875,11.25,58,75,10.8,CL,1731267584
73,kochubey,44.3861,46.5825,8.36,67,33,1.69,RU,1731267585
74,rongelap,11.1635,166.8941,27.82,80,74,9.4,MH,1731267586
75,north logan,41.7694,-111.8047,10.76,49,91,1.32,US,1731267587
76,nova sintra,14.8667,-24.7167,26.82,74,87,7.28,CV,1731267588
77,slave lake,55.2834,-114.769,1.99,69,0,2.06,CA,1731267590
78,margaret river,-33.95,115.0667,9.39,90,75,2.81,AU,1731267422
79,wynne,35.2245,-90.7868,24.24,67,73,4.22,US,1731267592
80,santa maria,-29.6842,-53.8069,28.61,48,0,3.09,BR,1731267565
81,shaowu,27.3409,117.4831,17.39,98,8,0.35,CN,1731267594
82,alotau,-10.3069,150.4462,24.46,95,100,1.42,PG,1731267595
83,talitsy,56.5289,42.3344,1.56,84,100,2.37,RU,1731267596
84,fale old settlement,-9.3852,-171.2468,27.77,77,98,5.5,TK,1731267597
85,princeville,45.7668,-61.2985,6.4,55,0,4.63,CA,1731267599
86,mutoko,-17.397,32.2268,22.93,37,0,1.84,ZW,1731267600
87,edinburgh of the seven seas,-37.0676,-12.3116,15.8,88,100,13.39,SH,1731267601
88,albany,42.6001,-73.9662,12.23,41,100,1.34,US,1731267316
89,tuy hoa,13.0833,109.3,22.28,95,50,1.32,VN,1731267603
90,san-pedro,4.7485,-6.6363,25.85,87,75,2.67,CI,1731267604
91,olonkinbyen,70.9221,-8.7187,1.64,99,100,9.88,SJ,1731267433
92,aasiaat,68.7098,-52.8699,-9.37,97,94,1.51,GL,1731267546
93,lorengau,-2.0226,147.2712,26.81,81,36,1.24,PG,1731267608
94,badger,64.8,-147.5333,-19.05,78,0,0.0,US,1731267451
95,modimolle,-24.7,28.4,19.06,91,100,4.49,ZA,1731267610
96,carnarvon,-24.8667,113.6333,20.03,70,45,11.35,AU,1731267612
97,trincomalee,8.5711,81.2335,27.87,72,51,4.67,LK,1731267613
98,lihue,21.9789,-159.3672,24.77,89,75,6.69,US,1731267601
99,anadyr,64.75,177.4833,-4.72,86,75,3.0,RU,1731267564
100,siwa oasis,29.2041,25.5195,20.52,44,2,2.22,EG,1731267617
101,west island,-12.1568,96.8225,26.99,83,100,7.2,CC,1731267618
102,osa,57.2829,55.4567,-4.19,84,42,4.23,RU,1731267619
103,bethel,41.3712,-73.414,14.39,45,0,3.6,US,1731267370
104,mumford,5.2618,-0.759,26.39,83,7,2.32,GH,1731267622
105,taguatinga,-12.3857,-46.5711,27.77,68,80,0.81,BR,1731267623
106,andergrove,-21.0833,149.1833,25.48,71,100,4.65,AU,1731267624
107,qa'en,33.7265,59.1844,10.87,51,2,0.96,IR,1731267625
108,san antonio de pale,-1.4014,5.6325,26.11,83,86,3.22,GQ,1731267626
109,walvis bay,-22.9575,14.5053,15.04,80,7,6.25,,1731267627
110,bredasdorp,-34.5322,20.0403,15.87,73,97,3.38,ZA,1731267440
111,whitehorse,60.7161,-135.0538,-1.57,74,75,5.14,CA,1731267630
112,portland,45.5234,-122.6762,13.78,80,75,2.57,US,1731267404
113,constantia,44.1833,28.65,6.38,82,99,5.62,RO,1731267632
114,howrah,22.5892,88.3103,24.0,83,0,2.06,IN,1731267620
115,tabou,4.423,-7.3528,25.98,84,37,2.42,CI,1731267634
116,papao,-17.75,-149.55,27.82,87,100,8.4,PF,1731267636
117,enewetak,11.3474,162.3373,28.2,72,78,10.21,MH,1731267637
118,al hasakah,36.5024,40.7477,18.3,31,96,2.6,SY,1731267563
119,namdrik,5.5994,168.1028,28.14,78,100,5.81,MH,1731267639
120,axim,4.8699,-2.2405,25.74,86,15,2.42,GH,1731267641
121,zonguldak,41.25,31.8333,6.47,84,99,1.21,TR,1731267642
122,tashtagol,52.7657,87.8894,-0.25,92,99,5.6,RU,1731267643
123,tsiombe,-25.3,45.4833,23.07,82,51,2.38,MG,1731267644
124,la ronge,55.1001,-105.2842,4.14,65,40,3.09,CA,1731267645
125,cascais,38.6979,-9.4215,19.17,79,40,5.66,PT,1731267646
126,fort bragg,35.139,-79.006,20.51,66,100,2.06,US,1731267648
127,berezovyy,51.6667,135.7,-3.95,58,32,3.34,RU,1731267649
128,nouadhibou,20.931,-17.0347,27.99,28,0,5.66,MR,1731267650
129,wangqing,43.3218,129.7634,-0.23,82,2,0.89,CN,1731267651
130,iskateley,67.6803,53.1512,-8.6,91,18,3.16,RU,1731267652
131,weno,7.4515,151.8468,26.97,83,40,0.0,FM,1731267653
132,thompson,55.7435,-97.8558,-0.91,74,100,1.54,CA,1731267654
133,kodiak,57.79,-152.4072,3.73,87,100,8.75,US,1731267656
134,verkhniy baskunchak,48.2256,46.7217,5.74,78,99,1.59,RU,1731267657
135,madera,37.1666,-119.8343,24.37,24,100,2.03,US,1731267377
136,ciudad lazaro cardenas,17.9583,-102.2,29.52,68,68,4.04,MX,1731267659
137,kitimat,54.0524,-128.6534,2.6,99,98,1.67,CA,1731267660
138,ulladulla,-35.35,150.4667,16.66,72,100,0.91,AU,1731267661
139,sitka,57.0531,-135.33,8.94,53,75,10.29,US,1731267662
140,pangody,65.85,74.4859,-10.1,93,100,10.02,RU,1731267664
141,taulaga,-11.0553,-171.0883,28.56,74,78,7.84,AS,1731267665
142,nuku'alofa,-21.1333,-175.2,24.19,88,75,4.12,TO,1731267666
143,atherton,53.5237,-2.4935,11.23,96,88,0.45,GB,1731267667
144,ribeira grande,38.5167,-28.7,20.43,83,40,8.23,PT,1731267668
145,knezevo,44.4908,17.3775,-1.12,78,6,0.9,BA,1731267670
146,fort mcmurray,56.7268,-111.381,1.77,69,100,5.14,CA,1731267671
147,jamestown,42.097,-79.2353,9.45,95,100,5.66,US,1731267489
148,tiksi,71.6872,128.8694,-19.56,100,82,1.51,RU,1731267427
149,fethiye,36.6217,29.1164,15.76,70,100,2.06,TR,1731267674
150,saint-louis du nord,19.9333,-72.7167,28.33,78,48,7.42,HT,1731267675
151,gizo,-8.103,156.8419,27.64,76,18,2.37,SB,1731267677
152,serowe,-22.3833,26.7167,22.53,69,100,2.0,BW,1731267678
153,viedma,-40.8135,-62.9967,19.11,22,100,2.44,AR,1731267023
154,stanley,54.868,-1.6985,8.07,87,0,3.09,GB,1731267680
155,eirunepe,-6.6603,-69.8736,34.32,43,93,1.24,BR,1731267682
156,cabinda,-5.55,12.2,27.08,83,75,2.06,AO,1731267684
157,port elizabeth,-33.918,25.5701,16.29,91,20,2.06,ZA,1731267685
158,buulobarde,3.8538,45.5674,26.48,73,39,5.11,SO,1731267686
159,sur,22.5667,59.5289,26.61,58,0,0.25,OM,1731267618
160,kapuskasing,49.4169,-82.4331,7.05,81,100,3.09,CA,1731267688
161,petropavlovsk-kamchatsky,53.0452,158.6483,-5.67,80,100,1.0,RU,1731267689
162,dhuusamarreeb,5.535,46.3861,26.92,57,95,6.63,SO,1731267691
163,port saint john's,-31.6229,29.5448,18.14,92,100,0.41,ZA,1731267692
164,mccook,40.2019,-100.6257,17.02,55,0,4.63,US,1731267693
165,etampes,48.4333,2.15,9.73,90,65,3.0,FR,1731267694
166,zhosaly,45.4878,64.0781,6.97,79,100,8.92,KZ,1731267695
167,colonia,50.9333,6.95,10.54,88,100,1.03,DE,1731267414
168,celestun,20.8667,-90.4,28.53,73,100,4.48,MX,1731267698
169,timimoun,29.2639,0.231,23.66,31,3,6.43,DZ,1731267699
170,brush,40.2589,-103.6238,15.57,51,0,4.12,US,1731267700
171,camana,-16.6228,-72.7111,20.22,75,37,3.2,PE,1731267701
172,guerrero negro,27.9769,-114.0611,24.37,30,95,2.66,MX,1731267702
173,tavricheskoye,54.5851,73.6395,-7.21,91,77,4.53,RU,1731267705
174,darwin,-12.4611,130.8418,25.99,83,100,1.03,AU,1731267706
175,muravlenko,63.7898,74.523,-16.96,99,92,3.76,RU,1731267707
176,nova vicosa,-17.8919,-39.3719,24.62,80,92,6.44,BR,1731267708
177,serhetabat,35.2799,62.3438,8.42,53,0,0.84,TM,1731267709
178,berdigestyakh,62.0989,126.6992,-15.69,99,99,1.5,RU,1731267710
179,kamaishi,39.2667,141.8833,12.05,74,98,2.16,JP,1731267712
180,salekhard,66.53,66.6019,-17.42,87,19,3.88,RU,1731267713
181,pokachi,61.7198,75.3683,-8.8,94,100,5.3,RU,1731267714
182,coquimbo,-29.9533,-71.3436,18.85,68,0,5.66,CL,1731267096
183,saldanha,-33.0117,17.9442,17.03,79,100,7.42,ZA,1731267717
184,peniche,39.3558,-9.3811,19.0,92,91,8.0,PT,1731267719
185,rzhev,56.2624,34.3282,0.01,92,13,2.19,RU,1731267720
186,vilyuchinsk,52.9306,158.4028,-4.85,78,100,0.81,RU,1731267721
187,mangrol,21.1167,70.1167,26.79,61,0,3.79,IN,1731267722
188,pionerskiy,54.9508,20.2275,1.91,73,24,4.7,RU,1731267723
189,la passe,45.5549,-0.8967,15.24,83,100,2.88,FR,1731267724
190,rikaze,29.25,88.8833,2.49,61,0,1.64,CN,1731267725
191,gadzhiyevo,69.2551,33.3362,2.56,83,98,4.23,RU,1731267727
192,polyarnyy,69.1989,33.4478,2.63,83,100,4.24,RU,1731267728
193,smithers,54.7804,-127.1743,-0.82,93,100,1.03,CA,1731267729
194,florence,43.7667,11.25,12.82,52,0,1.54,IT,1731267730
195,ad dilam,23.9915,47.1627,23.47,32,8,3.25,SA,1731267731
196,hirara,24.8,125.2833,25.15,88,100,4.12,JP,1731267525
197,vorgashor,67.5833,63.95,-16.27,98,78,3.83,RU,1731267734
198,wailua homesteads,22.0669,-159.378,24.44,90,75,6.69,US,1731267735
199,sisimiut,66.9395,-53.6735,-6.32,82,100,4.48,GL,1731267736
200,khabarovsk,48.4808,135.0928,-2.11,54,0,8.0,RU,1731267737
201,kotel,42.8833,26.45,1.42,97,100,2.54,BG,1731267738
202,sipalay,9.75,122.5,24.47,90,78,0.5,PH,1731267739
203,san felice circeo,41.2372,13.0942,17.17,61,2,2.89,IT,1731267740
204,jiazi,22.8779,116.067,21.71,87,48,4.26,CN,1731267742
205,codrington,-38.2667,141.9667,7.24,93,5,3.23,AU,1731267743
206,port blair,11.6667,92.75,28.02,83,40,1.03,IN,1731267744
207,arraial do cabo,-22.9661,-42.0278,24.98,73,20,6.69,BR,1731267727
208,pisco,-13.7,-76.2167,23.03,64,0,4.12,PE,1731267746
209,dalandzadgad,43.5708,104.425,2.36,25,1,7.39,MN,1731267748
210,rudnyy,52.9594,63.1206,-4.24,91,100,3.79,KZ,1731267749
211,kismayo,-0.3582,42.5454,26.52,84,98,4.43,SO,1731267750
212,nagqu,31.5,92.0,-3.14,57,12,1.84,CN,1731267751
213,tocopilla,-22.092,-70.1979,20.49,65,33,3.48,CL,1731267752
214,aykhal,66.0,111.5,-15.22,97,100,2.98,RU,1731267753
215,castillos,-34.1667,-53.8333,22.36,57,4,3.72,UY,1731267754
216,tindouf,27.6711,-8.1474,25.84,18,6,3.1,DZ,1731267755
217,hakui,36.8833,136.7833,12.92,70,100,0.89,JP,1731267757
218,swakopmund,-22.6833,14.5333,16.66,81,7,2.24,,1731267758
219,soio,-6.1349,12.3689,25.13,85,57,1.92,AO,1731267759
220,susuman,62.7833,148.1667,-35.05,99,98,0.18,RU,1731267760
221,champerico,14.3,-91.9167,28.51,72,2,2.67,GT,1731267761
222,talnakh,69.4865,88.3972,-24.0,91,55,1.47,RU,1731267762
223,laojunmiao,39.8333,97.7333,2.94,61,96,1.43,CN,1731267764
224,bodo,67.28,14.405,3.02,75,0,4.63,NO,1731267765
225,saint-philippe,-21.3585,55.7679,24.35,88,43,5.22,RE,1731267766
226,daru,-9.0763,143.2092,26.06,83,100,5.25,PG,1731267767
227,haiku-pauwela,20.9219,-156.3051,26.01,74,40,8.05,US,1731267768
228,yanbu,24.0891,38.0637,29.02,58,0,1.54,SA,1731267770
229,yuzhno-kurilsk,44.0306,145.8556,10.24,81,100,7.18,RU,1731267772
230,naze,28.3667,129.4833,22.51,91,21,3.28,JP,1731267773
231,severo-yeniseyskiy,60.3725,93.0408,-8.1,87,100,2.97,RU,1731267774
232,hamilton,39.1834,-84.5333,17.1,95,100,5.14,US,1731267553
233,sibu,2.3,111.8167,22.77,99,77,0.52,MY,1731267776
234,crane,31.3974,-102.3501,23.18,13,0,3.64,US,1731267777
235,horqueta,-23.3428,-57.0597,36.84,21,0,2.44,PY,1731267778
236,sanya,18.2431,109.505,25.09,83,75,1.0,CN,1731267779
237,dudinka,69.4058,86.1778,-23.08,96,88,3.43,RU,1731267781
238,errachidia,31.9275,-4.4285,22.03,28,0,1.54,MA,1731267782
239,aldama,22.9167,-98.0667,31.61,49,21,3.02,MX,1731267783
240,sao francisco,-15.9486,-44.8644,30.65,52,6,1.12,BR,1731267784
241,mrakovo,52.7161,56.6244,-10.37,97,7,2.25,RU,1731267785
242,ust-nera,64.5667,143.2,-26.0,99,91,1.47,RU,1731267786
243,nioki,-2.7167,17.6833,20.94,88,95,0.15,CD,1731267788
244,pacific grove,36.6177,-121.9166,20.5,63,0,1.54,US,1731267789
245,salinopolis,-0.6136,-47.3561,27.94,77,7,7.63,BR,1731267790
246,ishikawa,26.4233,127.8214,24.46,100,20,2.06,JP,1731267791
247,jijel,36.8205,5.7667,16.97,88,40,2.06,DZ,1731267792
248,zhangye,38.9342,100.4517,4.05,50,16,1.34,CN,1731267793
249,hasaki,35.7333,140.8333,17.0,96,100,4.72,JP,1731267794
250,dalbandin,28.8947,64.4101,18.17,28,34,3.17,PK,1731267796
251,argo,37.6333,22.7333,10.08,74,0,2.68,GR,1731267797
252,dunedin,-45.8742,170.5036,11.0,70,75,4.47,NZ,1731267798
253,georgetown,5.4112,100.3354,26.97,84,40,3.09,MY,1731267532
254,tazacorte,28.629,-17.9293,22.54,73,0,3.09,ES,1731267800
255,pingliang,35.5392,106.6861,10.27,64,100,1.17,CN,1731267801
256,seminole,28.7086,-81.2081,29.04,74,75,7.2,US,1731267802
257,nema,57.5067,50.5011,-3.66,91,10,3.25,RU,1731267805
258,lamarque,-39.423,-65.7021,24.75,12,25,12.37,AR,1731267806
259,hithadhoo,-0.6,73.0833,28.01,73,92,5.94,MV,1731267807
260,buena vista,43.4203,-83.8986,11.97,94,100,4.12,US,1731267808
261,sydney,-33.8679,151.2073,18.61,77,75,6.69,AU,1731267432
262,antsiranana,-12.2787,49.2917,25.77,83,59,5.17,MG,1731267811
263,varzelandia,-15.7014,-44.0275,27.87,55,65,3.3,BR,1731267812
264,fortuna,40.5982,-124.1573,21.07,36,0,5.66,US,1731267813
265,khorixas,-20.3667,14.9667,18.67,39,26,6.85,,1731267815
266,malvan,16.0667,73.4667,25.44,61,5,3.5,IN,1731267817
267,kenai,60.5544,-151.2583,4.52,70,100,3.09,US,1731267819
268,pamanukan,-6.2842,107.8106,27.08,81,100,1.59,ID,1731267820
269,pangai,-19.8,-174.35,25.06,78,75,7.2,TO,1731267821
270,porto novo,6.4965,2.6036,27.9,80,64,2.6,BJ,1731267688
271,nar'yan-mar,67.6713,53.087,-7.93,91,32,3.36,RU,1731267823
272,natal,-5.795,-35.2094,28.36,65,20,8.23,BR,1731267368
273,praia da vitoria,38.7333,-27.0667,20.14,88,40,5.84,PT,1731267825
274,apodi,-5.6642,-37.7989,30.12,49,55,9.49,BR,1731267826
275,yangambi,0.8102,24.4336,20.06,98,100,0.67,CD,1731267828
276,kralendijk,12.15,-68.2667,30.99,66,20,2.57,BQ,1731267829
277,east london,-33.0153,27.9116,17.04,88,100,1.83,ZA,1731267830
278,paita,-5.0892,-81.1144,21.07,76,84,7.86,PE,1731267831
279,skikda,36.8762,6.9092,18.61,74,91,4.83,DZ,1731267832
280,cabedelo,-6.9811,-34.8339,29.37,72,99,5.35,BR,1731267833
281,kamiiso,41.8167,140.65,14.21,82,90,4.63,JP,1731267834
282,kharp,66.8014,65.8081,-17.2,91,45,4.6,RU,1731267836
283,valmiera,57.5411,25.4275,5.36,88,100,1.85,LV,1731267837
284,mount gambier,-37.8333,140.7667,7.76,90,12,2.39,AU,1731267838
285,lerwick,60.1545,-1.1494,9.62,76,99,7.96,GB,1731267839
286,puerto ayora,-0.7393,-90.3518,24.19,77,75,3.13,EC,1731267841
287,zapala,-38.8992,-70.0544,13.82,31,25,13.72,AR,1731267844
288,bannu,32.9854,70.6027,22.17,35,6,1.28,PK,1731267845
289,puerto baquerizo moreno,-0.9,-89.6,25.55,61,20,5.14,EC,1731267846
290,suomussalmi,64.8869,28.9078,-1.72,93,80,2.02,FI,1731267847
291,vuktyl,63.8567,57.3094,-7.46,91,100,4.87,RU,1731267815
292,mermoz boabab,14.7065,-17.4758,27.88,65,0,3.09,SN,1731267820
293,tura,25.5198,90.2201,19.43,89,0,1.37,IN,1731267851
294,quelimane,-17.8786,36.8883,26.97,78,20,5.14,MZ,1731267852
295,sparti,37.0733,22.4297,10.34,69,37,0.84,GR,1731267853
296,tarauaca,-8.1614,-70.7656,31.32,52,95,1.0,BR,1731267854
297,toulepleu guere,6.574,-8.4259,25.75,68,96,0.82,CI,1731267855
298,beichengqu,40.4394,113.1536,7.36,85,100,3.91,CN,1731267859
299,college,64.8569,-147.8028,-19.01,78,20,0.0,US,1731267860
300,chincha alta,-13.4099,-76.1323,21.37,70,31,3.54,PE,1731267861
301,bairnsdale,-37.8333,147.6167,10.03,96,10,1.82,AU,1731267862
302,ra's bayrut,33.9,35.4833,19.81,73,75,2.57,LB,1731267753
303,key west,24.5557,-81.7826,29.44,74,40,7.2,US,1731267864
304,paredon,16.0333,-93.8667,30.18,61,40,3.83,MX,1731267865
305,vel'sk,61.0701,42.0983,-1.06,92,79,3.07,RU,1731267867
306,nemuro,43.3236,145.575,11.84,81,100,8.78,JP,1731267868
307,san patricio,28.017,-97.5169,31.97,56,20,3.33,US,1731267869
308,ilulissat,69.2167,-51.1,-3.99,74,75,4.63,GL,1731267746
309,nechi,8.0942,-74.7757,26.73,91,98,1.41,CO,1731267871
310,armacao de buzios,-22.7469,-41.8817,25.09,75,50,4.07,BR,1731267872
311,berbesti,44.9833,23.8833,4.14,90,100,0.83,RO,1731267874
312,uturoa,-16.7333,-151.4333,27.22,81,100,6.03,PF,1731267875
313,andorra,42.5,1.5,6.78,91,31,3.57,AD,1731267876
314,malango,-2.9627,119.9001,18.42,98,33,1.15,ID,1731267877
315,alice springs,-23.7,133.8833,18.75,88,100,3.6,AU,1731267878
316,bikenibeu village,1.3673,173.1241,27.98,89,75,4.12,KI,1731267879
317,mutuali,-14.8706,37.0044,24.68,61,13,1.36,MZ,1731267880
318,touros,-5.1989,-35.4608,26.07,72,100,5.92,BR,1731267882
319,tulum,20.2167,-87.4667,28.49,75,90,1.7,MX,1731267883
320,lebu,-37.6167,-73.65,14.06,69,0,4.72,CL,1731267644
321,tasqala,51.1167,50.3167,2.67,81,99,2.84,KZ,1731267885
322,mgandu,-5.95,34.1333,22.56,43,78,2.52,TZ,1731267886
323,kozyatyn,49.7143,28.8339,2.55,75,6,1.91,UA,1731267887
324,shuangcheng,45.35,126.2833,-0.36,35,32,0.36,CN,1731267888
325,ngorongoro,-3.2397,35.4875,13.9,68,86,1.5,TZ,1731267890
326,tarawa,1.419,172.984,28.05,89,75,4.12,KI,1731267730
327,severnoye,56.3491,78.3619,-8.0,90,100,4.54,RU,1731267892
328,dazhou,31.2159,107.5009,16.36,78,100,1.02,CN,1731267893
329,salaga,8.5508,-0.5188,27.83,37,62,1.41,GH,1731267894
330,port alfred,-33.5906,26.891,15.66,98,100,0.89,ZA,1731267895
331,archangelos,36.2149,28.1149,18.5,75,98,1.46,GR,1731267896
332,itanhem,-17.1664,-40.33,22.78,92,98,4.9,BR,1731267897
333,ulaangom,49.9811,92.0667,-6.3,58,99,0.92,MN,1731267899
334,taroa,8.7058,171.2275,28.39,74,0,7.37,MH,1731267900
335,york,40.1254,-77.0,11.55,60,100,2.57,US,1731267687
336,fort st. john,56.2499,-120.8529,-0.06,69,75,3.09,CA,1731267902
337,kerikeri,-35.2268,173.9474,18.57,80,100,2.08,NZ,1731267903
338,olinda,-8.0089,-34.8553,27.85,69,40,5.66,BR,1731267905
339,la'ie,21.6477,-157.9253,26.7,73,30,5.81,US,1731267906
340,jeremie,18.65,-74.1167,28.38,79,54,1.66,HT,1731267907
341,chibougamau,49.9168,-74.3659,2.79,81,100,3.6,CA,1731267908
342,pathein,16.7833,94.7333,22.22,95,64,2.36,MM,1731267909
343,conduaga,8.862,117.4893,25.77,89,100,1.56,PH,1731267910
344,sinabang,2.4803,96.3801,26.33,86,100,0.65,ID,1731267912
345,kurchatov,51.6601,35.6521,5.49,75,100,2.53,RU,1731267913
346,necochea,-38.5473,-58.7368,13.87,91,100,7.89,AR,1731267914
347,essaouira,31.5125,-9.77,22.72,64,4,3.6,MA,1731267915
348,kirakira,-10.4544,161.9205,26.81,84,100,3.19,SB,1731267916
349,mananjary,-21.2167,48.3333,23.97,94,42,3.51,MG,1731267917
350,alofi,-19.0595,-169.9187,24.94,78,75,6.69,NU,1731267695
351,sylvan lake,52.3168,-114.0853,1.76,89,75,4.63,CA,1731267902
352,qarauyl,48.9451,79.255,0.31,79,100,12.25,KZ,1731267921
353,chonchi,-42.6128,-73.8092,12.29,82,28,4.23,CL,1731267675
354,akonolinga,3.7667,12.25,20.46,94,59,0.68,CM,1731267923
355,ussel,45.55,2.3167,9.68,88,97,2.18,FR,1731267924
356,cill airne,52.05,-9.5167,8.18,94,29,0.97,IE,1731267925
357,dover,39.1582,-75.5244,16.73,55,100,4.12,US,1731267926
358,betio village,1.358,172.9211,28.02,76,91,8.07,KI,1731267927
359,antonio enes,-16.2325,39.9086,26.04,86,3,5.22,MZ,1731267929
360,carbonear,47.7332,-53.2148,3.41,56,9,9.92,CA,1731267645
361,afaahiti,-17.75,-149.2833,24.58,86,100,7.34,PF,1731267931
362,el nido,11.1858,119.3956,26.19,96,89,2.86,PH,1731267932
363,svetlyy,54.675,20.1347,4.11,75,42,3.47,RU,1731267933
364,brookings,44.3114,-96.7984,11.21,81,75,7.2,US,1731267811
365,ilomantsi,62.6716,30.9328,-1.19,79,64,1.38,FI,1731267935
366,tirano,46.2154,10.1679,8.99,56,6,2.82,IT,1731267936
367,lospalos,-8.5186,127.0025,19.71,91,54,1.09,TL,1731267938
368,ji'an,27.1172,114.9793,16.52,91,0,1.14,CN,1731267939
369,napanee,44.2501,-76.9494,11.02,55,100,2.96,CA,1731267940
370,chuguyevka,44.1653,133.8633,-0.86,89,6,1.14,RU,1731267941
371,porbandar,21.6422,69.6093,27.11,63,0,4.85,IN,1731267942
372,novyy urgal,51.0736,132.5642,-9.28,82,0,2.62,RU,1731267943
373,aleksandrovsk-sakhalinskiy,50.8975,142.1561,-0.05,78,100,12.68,RU,1731267944
374,airuk,7.2772,168.8203,28.85,69,64,8.65,MH,1731267945
375,huicungo,-7.2833,-76.8,33.05,45,55,1.75,PE,1731267947
376,revda,56.801,59.9303,-7.74,90,100,4.64,RU,1731267948
377,cockburn town,21.4612,-71.1419,27.98,89,75,7.72,TC,1731267769
378,karratha,-20.7377,116.8463,26.1,45,39,4.9,AU,1731267950
379,balikpapan,-1.2675,116.8289,26.55,83,40,2.06,ID,1731267951
380,sterling,39.0062,-77.4286,16.42,42,75,6.17,US,1731267952
381,glodeni,47.7708,27.5144,5.24,64,100,2.11,MD,1731267953
382,kununurra,-15.7667,128.7333,27.99,78,97,2.06,AU,1731267955
383,hun,29.1268,15.9477,21.37,33,100,2.86,LY,1731267956
384,rundu,-17.9333,19.7667,25.23,55,85,2.57,,1731267957
385,rayevskiy,54.0658,54.9468,-4.63,89,7,3.23,RU,1731267958
386,fortaleza,-3.7227,-38.5247,29.07,61,20,9.26,BR,1731267696
387,bhimunipatnam,17.8833,83.4333,22.97,75,98,3.31,IN,1731267960
388,cidade velha,14.9167,-23.6167,27.26,61,40,5.66,CV,1731267961
389,sao vicente,-23.9631,-46.3919,23.98,26,20,4.63,BR,1731267963
390,koungheul,13.9833,-14.8,30.48,17,2,2.84,SN,1731267964
391,sungailiat,-1.85,106.1333,26.15,85,100,1.01,ID,1731267965
392,igarka,67.4667,86.5833,-11.76,93,100,4.56,RU,1731267966
393,rawson,-43.3002,-65.1023,22.16,12,20,4.63,AR,1731267967
394,mpika,-11.8343,31.4529,20.17,59,29,1.93,ZM,1731267968
395,ribeira brava,32.65,-17.0667,23.4,41,53,5.51,PT,1731267969
396,veydelevka,50.1521,38.4492,5.09,88,100,1.86,RU,1731267970
397,mar del plata,-38.0023,-57.5575,19.01,92,100,2.06,AR,1731267972
398,lugus,5.7036,120.8203,27.85,79,29,1.95,PH,1731267974
399,shingu,33.7333,135.9833,16.88,91,100,1.59,JP,1731267975
400,aras-asan,8.8908,126.3033,25.3,90,95,1.6,PH,1731267976
401,conceicao da barra,-18.5933,-39.7322,24.35,76,40,5.26,BR,1731267977
402,zuunmod,47.7069,106.9528,-10.43,93,2,2.23,MN,1731267978
403,amahai,-3.3333,128.9167,26.24,81,100,0.9,ID,1731267979
404,makarov,48.6333,142.8,1.05,65,1,10.94,RU,1731267981
405,mildura,-34.2,142.15,20.19,33,100,3.95,AU,1731267982
406,chokwe,-24.5333,32.9833,27.53,60,100,6.2,MZ,1731267983
407,tago,9.0211,126.2317,24.7,93,99,1.61,PH,1731267984
408,adrar,20.5022,-10.0711,25.05,14,1,4.1,MR,1731267985
409,esquel,-42.9,-71.3167,7.71,76,100,5.63,AR,1731267711
410,yaren,-0.5472,166.916,27.71,72,95,4.85,NR,1731267987
411,al wajh,26.2455,36.4525,25.97,41,0,3.6,SA,1731267989
412,sines,37.9562,-8.8698,18.49,80,22,6.71,PT,1731267719
413,calama,-22.4667,-68.9333,24.27,10,0,9.77,CL,1731267703
414,itaituba,-4.2761,-55.9836,35.09,49,20,2.06,BR,1731267992
415,trairi,-3.2778,-39.2689,26.57,75,100,5.84,BR,1731267908
416,barakani,-12.1356,44.4317,26.14,79,10,1.77,KM,1731267996
417,miyako,39.6367,141.9525,10.24,76,100,2.2,JP,1731267997
418,akureyri,65.6835,-18.0878,7.96,66,75,8.75,IS,1731267998
419,glace bay,46.1969,-59.957,5.25,63,20,6.17,CA,1731267999
420,tansen,27.8673,83.5467,13.52,79,0,2.08,NP,1731268000
421,baiyin,36.5583,104.2081,7.3,49,100,6.6,CN,1731268001
422,kailua-kona,19.6406,-155.9956,27.93,73,0,3.6,US,1731268002
423,hami,42.8,93.45,5.69,43,0,3.72,CN,1731268003
424,ciudad bolivar,8.1222,-63.5497,36.65,31,33,3.46,VE,1731268005
425,tolanaro,-25.0319,46.9987,25.04,78,0,8.75,MG,1731267811
426,khandyga,62.6667,135.6,-19.71,100,97,0.78,RU,1731268007
427,zhangjiakou,40.81,114.8794,8.38,77,100,3.29,CN,1731268008
428,langsa,4.4683,97.9683,23.95,92,100,0.55,ID,1731268009
429,flying fish cove,-10.4217,105.6791,25.82,94,100,3.6,CX,1731268010
430,corod,45.9,27.6167,4.73,69,11,3.58,RO,1731268011
431,kalmeshwar,21.2333,78.9,20.79,60,0,1.6,IN,1731268013
432,new norfolk,-42.7826,147.0587,7.62,86,11,1.15,AU,1731267734
433,sao joao da barra,-21.6403,-41.0511,25.05,70,65,5.98,BR,1731268015
434,luau,-10.7073,22.2247,19.06,93,100,1.44,AO,1731268016
435,douliu,23.7094,120.5433,23.69,83,17,1.49,TW,1731268017
436,verkhniy mamon,50.1635,40.3832,4.99,80,100,2.09,RU,1731268018
437,san rafael,-34.6177,-68.3301,22.99,29,64,10.15,AR,1731267917
438,patrasaer,23.2167,87.5167,21.15,66,0,1.81,IN,1731268021
439,san juan de miraflores,-12.1629,-76.9635,21.29,74,100,3.96,PE,1731268022
440,sandefjord,59.1312,10.2167,4.04,99,100,2.57,NO,1731268023
441,saint-francois,46.4154,3.9054,12.03,100,100,3.6,FR,1731268024
442,colonel hill,22.7667,-74.2167,27.44,83,45,7.63,BS,1731268025
443,garissa,-0.4536,39.6401,28.12,68,93,8.01,KE,1731267574
444,lieto,60.5103,22.4618,3.46,97,100,3.09,FI,1731268028
445,hit,33.6416,42.8251,20.42,49,99,1.47,IQ,1731268029
446,utrik,11.2278,169.8474,28.33,76,0,9.3,MH,1731268030
447,westport,41.1415,-73.3579,14.87,51,0,5.66,US,1731267907
448,kanodar,24.1,72.3833,24.02,32,0,1.85,IN,1731268032
449,bamboo flat,11.7,92.7167,28.05,83,40,1.03,IN,1731268033
450,coronel dorrego,-38.7187,-61.2873,13.78,82,100,2.91,AR,1731268034
451,date,42.4681,140.8681,12.5,92,100,4.79,JP,1731268036
452,puerto carreno,6.189,-67.4859,34.99,52,40,2.06,CO,1731268037
453,steamboat springs,40.485,-106.8317,5.75,66,0,0.45,US,1731267758
454,patan,27.6667,85.3333,16.21,82,40,1.54,NP,1731268039
455,ceeldheer,3.8488,47.1806,26.6,82,90,5.05,SO,1731268040
456,macapa,0.0389,-51.0664,31.99,58,75,6.17,BR,1731267971
457,kayangel,8.0823,134.7173,27.93,77,22,2.01,PW,1731268042
458,oriximina,-1.7656,-55.8661,37.57,25,6,3.19,BR,1731268044
459,yeonggwang,35.275,126.5094,11.29,91,5,2.11,KR,1731268045
460,saipan,15.1355,145.701,28.39,88,0,6.69,MP,1731268046
461,tara,56.8944,74.371,-8.48,88,94,4.41,RU,1731268047
462,san rafael del sur,11.8485,-86.4384,27.67,78,57,2.26,NI,1731268048
463,friedrichstadt,54.3757,9.0867,7.11,90,98,2.64,DE,1731268049
464,changyon,38.2508,125.0961,10.21,92,5,1.04,KP,1731268050
465,okha,53.5739,142.9478,0.74,97,100,13.21,RU,1731268052
466,whakatane,-37.9585,176.9854,18.62,99,100,1.34,NZ,1731268053
467,tongliao,43.6125,122.2653,3.08,44,100,3.22,CN,1731268054
468,geraldton,-28.7667,114.6,15.23,82,0,6.17,AU,1731268055
469,anaconda,46.1285,-112.9423,9.2,49,100,2.56,US,1731268057
470,rio claro,-22.4114,-47.5614,29.66,53,3,3.15,BR,1731268058
471,recreo,-29.2818,-65.061,37.91,26,7,7.36,AR,1731268059
472,medicine hat,50.0501,-110.6683,5.4,73,75,4.12,CA,1731267901
473,caleta de carquin,-11.0925,-77.6267,21.03,73,57,5.02,PE,1731268062
474,mil'kovo,55.6078,37.7956,2.57,53,25,1.54,RU,1731268063
475,austin,30.2672,-97.7431,30.88,43,0,2.06,US,1731267882
476,urzhar,47.093,81.6294,1.12,100,100,1.77,KZ,1731268065
477,rada tilly,-45.9333,-67.5333,19.27,24,20,9.26,AR,1731268066
478,north bend,43.4065,-124.2243,14.59,94,100,3.09,US,1731268067
479,moussoro,13.6408,16.4901,27.17,19,74,4.21,TD,1731268068
480,levuka,50.1834,-105.4011,2.84,78,100,7.2,CA,1731268070
481,wynyard,-41.0,145.7167,5.79,97,20,2.22,AU,1731268071
482,horta,38.5333,-28.6333,20.01,90,40,7.72,PT,1731268072
483,shalqar,47.8333,59.6,2.47,80,100,6.58,KZ,1731268073
484,tubarjal,30.4999,38.216,20.48,45,0,8.7,SA,1731268074
485,bubaque,11.2833,-15.8333,29.73,59,0,2.65,GW,1731268075
486,keflavik,64.0049,-22.5624,6.24,87,75,12.35,IS,1731268076
487,isangel,-19.55,169.2667,24.36,70,0,3.61,VU,1731268077
488,san francisco de la paz,14.9,-86.2,25.53,73,58,0.76,HN,1731268079
489,sechura,-5.5569,-80.8222,24.66,59,100,6.7,PE,1731268080
490,sikeston,36.8767,-89.5879,22.96,56,0,5.66,US,1731268081
491,minas de marcona,-15.2119,-75.1103,19.52,59,10,5.49,PE,1731268082
492,volodarskiy,46.4013,48.5409,5.28,73,0,2.46,RU,1731268083
493,kavieng,-2.5744,150.7967,28.02,77,97,6.96,PG,1731268084
494,namibe,-15.1961,12.1522,21.2,70,87,3.47,AO,1731268085
495,reggane,26.7158,0.1714,26.65,23,100,2.63,DZ,1731268087
496,acapulco de juarez,16.8634,-99.8901,29.9,74,75,3.6,MX,1731268088
497,leh,34.1667,77.5833,-1.01,50,37,1.84,IN,1731268089
498,balykshi,47.0667,51.8667,4.0,93,75,3.0,KZ,1731268090
499,salalah,17.0151,54.0924,25.05,61,0,1.54,OM,1731268091
500,mayma,52.0197,85.9114,3.09,52,100,2.88,RU,1731268093
501,marine corps base hawaii - mcbh,21.4453,-157.7513,26.98,74,54,2.68,US,1731268095
502,upi,7.0258,124.1667,22.28,87,100,0.84,PH,1731268096
503,uryupinsk,50.8047,42.0138,5.57,58,100,2.46,RU,1731268097
504,jayapura,-2.5333,140.7,24.66,93,63,1.44,ID,1731268099
505,katsuura,35.1333,140.3,16.73,96,100,6.27,JP,1731268100
506,oytal,42.9057,73.2697,5.92,59,23,1.38,KZ,1731268101
507,kalmunai,7.4167,81.8167,24.82,88,50,4.36,LK,1731268103
508,yuci,37.6803,112.7319,8.86,66,0,2.0,CN,1731268105
509,chegdomyn,51.1167,133.0167,-9.27,84,50,2.31,RU,1731268106
510,puerto deseado,-47.7503,-65.8938,17.19,27,80,4.68,AR,1731267979
511,hermiston,45.8404,-119.2895,11.36,77,75,2.57,US,1731268108
512,alaghsas,17.0187,8.0168,23.31,18,6,5.28,NE,1731268109
513,woolgoolga,-30.1106,153.2007,21.93,93,99,3.65,AU,1731268111
514,as sulayyil,20.4607,45.5779,22.16,35,1,2.81,SA,1731268112
515,buala,-8.145,159.5921,27.07,79,93,1.7,SB,1731268113
516,wokha,26.1,94.2667,11.87,91,0,1.57,IN,1731268114
517,zhaqsy,51.9083,67.3133,-0.51,99,100,5.41,KZ,1731268115
518,the pas,53.8251,-101.2541,2.01,93,100,3.09,CA,1731268116
519,kruisfontein,-34.0033,24.7314,13.04,86,14,0.73,ZA,1731268117
520,douglas,41.3,-96.167,13.79,70,100,5.14,US,1731268118
521,sipovo,44.2814,17.0839,1.32,87,13,0.14,BA,1731268120
522,kapa'a,22.0752,-159.319,25.18,89,75,6.69,US,1731268121
523,betioky,-23.7167,44.3833,21.98,79,4,0.61,MG,1731268122
524,agapovka,53.2973,59.1348,-2.44,82,12,2.54,RU,1731268123
525,ciudad sabinas hidalgo,26.5,-100.1667,28.39,46,3,2.96,MX,1731268124
526,okhotsk,59.3833,143.3,-10.81,75,100,6.15,RU,1731268125
527,syktyvkar,61.6764,50.8099,-2.15,86,100,2.0,RU,1731268126
528,ancud,-41.8697,-73.8203,10.32,79,71,7.31,CL,1731268127
529,salida,37.7058,-121.0849,19.6,37,10,0.87,US,1731268129
530,kappelrodeck,48.6,8.1167,6.06,96,0,0.45,DE,1731268130
531,nago,26.5881,127.9761,24.54,94,76,2.02,JP,1731268131
532,manokwari,-0.8667,134.0833,25.84,80,100,2.15,ID,1731268132
533,sarichioi,44.95,28.85,5.12,93,100,7.72,RO,1731268133
534,nanning,22.8167,108.3167,22.25,57,5,1.27,CN,1731268134
535,muisne,0.6,-80.0333,24.19,79,100,4.57,EC,1731268135
536,kushtia,23.9011,89.1221,22.21,72,0,2.21,BD,1731268136
537,sultanah,24.4926,39.5857,29.25,24,0,1.03,SA,1731268138
538,george town,5.4112,100.3354,26.97,84,40,1.54,MY,1731267914
539,pak phanang,8.3511,100.202,24.6,91,100,2.43,TH,1731268140
540,suva,-18.1416,178.4415,24.71,100,75,2.06,FJ,1731268141
541,boende,-0.2167,20.8667,20.06,98,94,0.5,CD,1731268142
542,astrakhan,46.3497,48.0408,4.93,81,100,3.0,RU,1731267884
543,mongoumba,3.6415,18.5936,21.71,95,73,1.29,CF,1731268145
544,aljezur,37.3191,-8.8033,16.94,84,78,3.62,PT,1731268146
545,waajid,3.8096,43.2463,25.32,71,77,3.24,SO,1731268147
546,saint-denis,48.9167,2.3333,9.52,89,0,3.09,FR,1731268149
547,cova figueira,14.8905,-24.2934,21.6,57,82,4.05,CV,1731268151
548,port hedland,-20.3167,118.5667,27.03,78,18,5.14,AU,1731268152
549,coeur d'alene,47.6777,-116.7805,7.09,92,100,3.09,US,1731268007
550,taroudant,30.4703,-8.877,23.19,32,7,2.37,MA,1731268154
551,ketchikan,55.3422,-131.6461,5.26,81,100,7.72,US,1731268155
552,ballina,-28.8667,153.5667,21.12,91,79,1.34,AU,1731268156
553,constitucion,-35.3333,-72.4167,16.18,60,0,7.9,CL,1731267956
554,frenda,35.0654,1.0495,10.88,78,64,2.34,DZ,1731268159
555,targu carbunesti,44.95,23.5167,4.77,88,99,0.66,RO,1731268160
556,vicuna,-30.0319,-70.7081,29.87,41,2,3.58,CL,1731268161
557,merizo village,13.2658,144.6691,26.88,90,99,7.76,GU,1731268162
558,magna,40.7091,-112.1016,15.72,35,20,6.17,US,1731268163
559,makokou,0.5738,12.8642,20.81,98,14,0.56,GA,1731268164
560,wajir,1.7471,40.0573,29.94,51,98,5.84,KE,1731268165
561,chui,-33.6971,-53.4616,22.01,60,1,4.05,UY,1731268167
562,amos,48.5669,-78.1162,5.98,75,100,2.37,CA,1731268009
563,kalabo,-14.97,22.6814,25.47,53,10,2.54,ZM,1731268169
564,coro,11.4045,-69.6734,28.4,78,97,2.84,VE,1731268170
565,mineiros,-17.5694,-52.5511,26.76,66,90,0.92,BR,1731268171
566,nuuk,64.1835,-51.7216,-2.66,86,100,3.6,GL,1731268173
567,assab,13.0092,42.7394,27.94,70,0,10.23,ER,1731268174
568,brandon,27.9378,-82.2859,31.18,59,40,4.12,US,1731267720
569,dadeldhura,29.2984,80.5806,13.04,86,15,1.87,NP,1731268176
570,dawson creek,55.7666,-120.2362,-0.2,64,0,3.09,CA,1731268177
571,vorkuta,67.5,64.0,-16.19,98,77,4.03,RU,1731268178
572,zaragoza,41.6561,-0.8773,15.01,64,0,7.2,ES,1731268179
573,mugia,43.1041,-9.2179,16.62,97,100,3.94,ES,1731268180
574,babayevo,59.3936,35.9371,-1.85,92,34,1.64,RU,1731268182
